[{"name":"StumbleUpon","funding_rounds.raised_amount":1500000,"number_of_employees":null,"category_code":"web","latitude":37.775196,"longitude":-122.419204,"country_code":"USA","city":"San Francisco"},{"name":"StumbleUpon","funding_rounds.raised_amount":17000000,"number_of_employees":null,"category_code":"web","latitude":37.775196,"longitude":-122.419204,"country_code":"USA","city":"San Francisco"},{"name":"Technorati","funding_rounds.raised_amount":10520000,"number_of_employees":35.0,"category_code":"advertising","latitude":37.779558,"longitude":-122.393041,"country_code":"USA","city":"San Francisco"},{"name":"Technorati","funding_rounds.raised_amount":6500000,"number_of_employees":35.0,"category_code":"advertising","latitude":37.779558,"longitude":-122.393041,"country_code":"USA","city":"San Francisco"},{"name":"Technorati","funding_rounds.raised_amount":4580000,"number_of_employees":35.0,"category_code":"advertising","latitude":37.779558,"longitude":-122.393041,"country_code":"USA","city":"San Francisco"},{"name":"Technorati","funding_rounds.raised_amount":7500000,"number_of_employees":35.0,"category_code":"advertising","latitude":37.779558,"longitude":-122.393041,"country_code":"USA","city":"San Francisco"},{"name":"Technorati","funding_rounds.raised_amount":1000000,"number_of_employees":35.0,"category_code":"advertising","latitude":37.779558,"longitude":-122.393041,"country_code":"USA","city":"San Francisco"},{"name":"Technorati","funding_rounds.raised_amount":2000000,"number_of_employees":35.0,"category_code":"advertising","latitude":37.779558,"longitude":-122.393041,"country_code":"USA","city":"San Francisco"},{"name":"Kyte","funding_rounds.raised_amount":2250000,"number_of_employees":40.0,"category_code":"games_video","latitude":37.788482,"longitude":-122.409173,"country_code":"USA","city":"San Francisco"},{"name":"Kyte","funding_rounds.raised_amount":15000000,"number_of_employees":40.0,"category_code":"games_video","latitude":37.788482,"longitude":-122.409173,"country_code":"USA","city":"San Francisco"},{"name":"Kyte","funding_rounds.raised_amount":6100000,"number_of_employees":40.0,"category_code":"games_video","latitude":37.788482,"longitude":-122.409173,"country_code":"USA","city":"San Francisco"},{"name":"Wesabe","funding_rounds.raised_amount":700000,"number_of_employees":null,"category_code":"web","latitude":37.793148,"longitude":-122.402567,"country_code":"USA","city":"San Francisco"},{"name":"Wesabe","funding_rounds.raised_amount":4000000,"number_of_employees":null,"category_code":"web","latitude":37.793148,"longitude":-122.402567,"country_code":"USA","city":"San Francisco"},{"name":"Ustream","funding_rounds.raised_amount":1700000,"number_of_employees":250.0,"category_code":"games_video","latitude":37.392936,"longitude":-122.07948,"country_code":"USA","city":"San Francisco"},{"name":"Ustream","funding_rounds.raised_amount":11800000,"number_of_employees":250.0,"category_code":"games_video","latitude":37.392936,"longitude":-122.07948,"country_code":"USA","city":"San Francisco"},{"name":"Ustream","funding_rounds.raised_amount":46600000,"number_of_employees":250.0,"category_code":"games_video","latitude":37.392936,"longitude":-122.07948,"country_code":"USA","city":"San Francisco"},{"name":"Revision3","funding_rounds.raised_amount":1000000,"number_of_employees":null,"category_code":"games_video","latitude":37.757758,"longitude":-122.388243,"country_code":"USA","city":"San Francisco"},{"name":"Revision3","funding_rounds.raised_amount":8000000,"number_of_employees":null,"category_code":"games_video","latitude":37.757758,"longitude":-122.388243,"country_code":"USA","city":"San Francisco"},{"name":"CastTV","funding_rounds.raised_amount":3100000,"number_of_employees":0.0,"category_code":"games_video","latitude":37.780716,"longitude":-122.393913,"country_code":"USA","city":"San Francisco"},{"name":"Pageflakes","funding_rounds.raised_amount":1300000,"number_of_employees":20.0,"category_code":"web","latitude":37.758113,"longitude":-122.414689,"country_code":"USA","city":"San Francisco"},{"name":"Pageflakes","funding_rounds.raised_amount":2800000,"number_of_employees":20.0,"category_code":"web","latitude":37.758113,"longitude":-122.414689,"country_code":"USA","city":"San Francisco"},{"name":"Bebo","funding_rounds.raised_amount":15000000,"number_of_employees":0.0,"category_code":"web","latitude":37.782103,"longitude":-122.401116,"country_code":"USA","city":"San Francisco"},{"name":"Dogster","funding_rounds.raised_amount":1000000,"number_of_employees":null,"category_code":"web","latitude":37.762681,"longitude":-122.400909,"country_code":"USA","city":"San Francisco"},{"name":"adBrite","funding_rounds.raised_amount":4000000,"number_of_employees":50.0,"category_code":"advertising","latitude":37.779026,"longitude":-122.40184,"country_code":"USA","city":"San Francisco"},{"name":"adBrite","funding_rounds.raised_amount":8000000,"number_of_employees":50.0,"category_code":"advertising","latitude":37.779026,"longitude":-122.40184,"country_code":"USA","city":"San Francisco"},{"name":"adBrite","funding_rounds.raised_amount":23000000,"number_of_employees":50.0,"category_code":"advertising","latitude":37.779026,"longitude":-122.40184,"country_code":"USA","city":"San Francisco"},{"name":"adBrite","funding_rounds.raised_amount":5400000,"number_of_employees":50.0,"category_code":"advertising","latitude":37.779026,"longitude":-122.40184,"country_code":"USA","city":"San Francisco"},{"name":"Loomia","funding_rounds.raised_amount":1000000,"number_of_employees":null,"category_code":"web","latitude":37.796396,"longitude":-122.404869,"country_code":"USA","city":"San Francisco"},{"name":"Loomia","funding_rounds.raised_amount":5000000,"number_of_employees":null,"category_code":"web","latitude":37.796396,"longitude":-122.404869,"country_code":"USA","city":"San Francisco"},{"name":"Loomia","funding_rounds.raised_amount":1500000,"number_of_employees":null,"category_code":"web","latitude":37.796396,"longitude":-122.404869,"country_code":"USA","city":"San Francisco"},{"name":"Eventbrite","funding_rounds.raised_amount":250000,"number_of_employees":200.0,"category_code":"web","latitude":37.779507,"longitude":-122.39071,"country_code":"USA","city":"San Francisco"},{"name":"Eventbrite","funding_rounds.raised_amount":1300000,"number_of_employees":200.0,"category_code":"web","latitude":37.779507,"longitude":-122.39071,"country_code":"USA","city":"San Francisco"},{"name":"Eventbrite","funding_rounds.raised_amount":1500000,"number_of_employees":200.0,"category_code":"web","latitude":37.779507,"longitude":-122.39071,"country_code":"USA","city":"San Francisco"},{"name":"Eventbrite","funding_rounds.raised_amount":6500000,"number_of_employees":200.0,"category_code":"web","latitude":37.779507,"longitude":-122.39071,"country_code":"USA","city":"San Francisco"},{"name":"Eventbrite","funding_rounds.raised_amount":20000000,"number_of_employees":200.0,"category_code":"web","latitude":37.779507,"longitude":-122.39071,"country_code":"USA","city":"San Francisco"},{"name":"Eventbrite","funding_rounds.raised_amount":50000000,"number_of_employees":200.0,"category_code":"web","latitude":37.779507,"longitude":-122.39071,"country_code":"USA","city":"San Francisco"},{"name":"Eventbrite","funding_rounds.raised_amount":60000000,"number_of_employees":200.0,"category_code":"web","latitude":37.779507,"longitude":-122.39071,"country_code":"USA","city":"San Francisco"},{"name":"Seesmic","funding_rounds.raised_amount":6000000,"number_of_employees":13.0,"category_code":"web","latitude":37.775196,"longitude":-122.419204,"country_code":"USA","city":"San Francisco"},{"name":"Seesmic","funding_rounds.raised_amount":6000000,"number_of_employees":13.0,"category_code":"web","latitude":37.775196,"longitude":-122.419204,"country_code":"USA","city":"San Francisco"},{"name":"Seesmic","funding_rounds.raised_amount":4000000,"number_of_employees":13.0,"category_code":"web","latitude":37.775196,"longitude":-122.419204,"country_code":"USA","city":"San Francisco"},{"name":"Flixster","funding_rounds.raised_amount":2000000,"number_of_employees":75.0,"category_code":"web","latitude":37.766909,"longitude":-122.406676,"country_code":"USA","city":"San Francisco"},{"name":"Flixster","funding_rounds.raised_amount":5000000,"number_of_employees":75.0,"category_code":"web","latitude":37.766909,"longitude":-122.406676,"country_code":"USA","city":"San Francisco"},{"name":"Flixster","funding_rounds.raised_amount":175000,"number_of_employees":75.0,"category_code":"web","latitude":37.766909,"longitude":-122.406676,"country_code":"USA","city":"San Francisco"},{"name":"hi5","funding_rounds.raised_amount":20000000,"number_of_employees":100.0,"category_code":"games_video","latitude":37.788668,"longitude":-122.400558,"country_code":"USA","city":"San Francisco"},{"name":"hi5","funding_rounds.raised_amount":15000000,"number_of_employees":100.0,"category_code":"games_video","latitude":37.788668,"longitude":-122.400558,"country_code":"USA","city":"San Francisco"},{"name":"hi5","funding_rounds.raised_amount":3000000,"number_of_employees":100.0,"category_code":"games_video","latitude":37.788668,"longitude":-122.400558,"country_code":"USA","city":"San Francisco"},{"name":"hi5","funding_rounds.raised_amount":14000000,"number_of_employees":100.0,"category_code":"games_video","latitude":37.788668,"longitude":-122.400558,"country_code":"USA","city":"San Francisco"},{"name":"Curse","funding_rounds.raised_amount":6000000,"number_of_employees":58.0,"category_code":"games_video","latitude":37.787092,"longitude":-122.399972,"country_code":"USA","city":"San Francisco"},{"name":"Curse","funding_rounds.raised_amount":6000000,"number_of_employees":58.0,"category_code":"games_video","latitude":37.787092,"longitude":-122.399972,"country_code":"USA","city":"San Francisco"},{"name":"Kiptronic","funding_rounds.raised_amount":4000000,"number_of_employees":20.0,"category_code":"advertising","latitude":37.792394,"longitude":-122.402349,"country_code":"USA","city":"San Francisco"},{"name":"Kiptronic","funding_rounds.raised_amount":300000,"number_of_employees":20.0,"category_code":"advertising","latitude":37.792394,"longitude":-122.402349,"country_code":"USA","city":"San Francisco"},{"name":"Kiptronic","funding_rounds.raised_amount":3000000,"number_of_employees":20.0,"category_code":"advertising","latitude":37.792394,"longitude":-122.402349,"country_code":"USA","city":"San Francisco"},{"name":"Metacafe","funding_rounds.raised_amount":15000000,"number_of_employees":null,"category_code":"games_video","latitude":37.437328,"longitude":-122.159928,"country_code":"USA","city":"San Francisco"},{"name":"Metacafe","funding_rounds.raised_amount":30000000,"number_of_employees":null,"category_code":"games_video","latitude":37.437328,"longitude":-122.159928,"country_code":"USA","city":"San Francisco"},{"name":"Metacafe","funding_rounds.raised_amount":5000000,"number_of_employees":null,"category_code":"games_video","latitude":37.437328,"longitude":-122.159928,"country_code":"USA","city":"San Francisco"},{"name":"Kontera","funding_rounds.raised_amount":10300000,"number_of_employees":null,"category_code":"advertising","latitude":37.767575,"longitude":-122.411157,"country_code":"USA","city":"San Francisco"},{"name":"Kontera","funding_rounds.raised_amount":7000000,"number_of_employees":null,"category_code":"advertising","latitude":37.767575,"longitude":-122.411157,"country_code":"USA","city":"San Francisco"},{"name":"Kontera","funding_rounds.raised_amount":15500000,"number_of_employees":null,"category_code":"advertising","latitude":37.767575,"longitude":-122.411157,"country_code":"USA","city":"San Francisco"},{"name":"Kontera","funding_rounds.raised_amount":1999969,"number_of_employees":null,"category_code":"advertising","latitude":37.767575,"longitude":-122.411157,"country_code":"USA","city":"San Francisco"},{"name":"Kontera","funding_rounds.raised_amount":1340000,"number_of_employees":null,"category_code":"advertising","latitude":37.767575,"longitude":-122.411157,"country_code":"USA","city":"San Francisco"},{"name":"Yola","funding_rounds.raised_amount":5000000,"number_of_employees":70.0,"category_code":"web","latitude":37.7911148,"longitude":-122.3954751,"country_code":"USA","city":"San Francisco"},{"name":"Yola","funding_rounds.raised_amount":20000000,"number_of_employees":70.0,"category_code":"web","latitude":37.7911148,"longitude":-122.3954751,"country_code":"USA","city":"San Francisco"},{"name":"BitTorrent","funding_rounds.raised_amount":8750000,"number_of_employees":80.0,"category_code":"web","latitude":37.790998,"longitude":-122.394668,"country_code":"USA","city":"San Francisco"},{"name":"BitTorrent","funding_rounds.raised_amount":25000000,"number_of_employees":80.0,"category_code":"web","latitude":37.790998,"longitude":-122.394668,"country_code":"USA","city":"San Francisco"},{"name":"BitTorrent","funding_rounds.raised_amount":7000000,"number_of_employees":80.0,"category_code":"web","latitude":37.790998,"longitude":-122.394668,"country_code":"USA","city":"San Francisco"},{"name":"Kongregate","funding_rounds.raised_amount":1000000,"number_of_employees":20.0,"category_code":"games_video","latitude":37.786942,"longitude":-122.401245,"country_code":"USA","city":"San Francisco"},{"name":"Kongregate","funding_rounds.raised_amount":5000000,"number_of_employees":20.0,"category_code":"games_video","latitude":37.786942,"longitude":-122.401245,"country_code":"USA","city":"San Francisco"},{"name":"Kongregate","funding_rounds.raised_amount":3000000,"number_of_employees":20.0,"category_code":"games_video","latitude":37.786942,"longitude":-122.401245,"country_code":"USA","city":"San Francisco"},{"name":"Kongregate","funding_rounds.raised_amount":10000000,"number_of_employees":20.0,"category_code":"games_video","latitude":37.786942,"longitude":-122.401245,"country_code":"USA","city":"San Francisco"},{"name":"DanceJam","funding_rounds.raised_amount":1000000,"number_of_employees":0.0,"category_code":"games_video","latitude":37.781557,"longitude":-122.407959,"country_code":"USA","city":"San Francisco"},{"name":"DanceJam","funding_rounds.raised_amount":3500000,"number_of_employees":0.0,"category_code":"games_video","latitude":37.781557,"longitude":-122.407959,"country_code":"USA","city":"San Francisco"},{"name":"Fathom Online","funding_rounds.raised_amount":6000000,"number_of_employees":null,"category_code":"advertising","latitude":37.775196,"longitude":-122.419204,"country_code":"USA","city":"San Francisco"},{"name":"DotBlu","funding_rounds.raised_amount":250000,"number_of_employees":null,"category_code":"web","latitude":37.09024,"longitude":-95.712891,"country_code":"USA","city":"San Francisco"},{"name":"DotBlu","funding_rounds.raised_amount":2000000,"number_of_employees":null,"category_code":"web","latitude":37.09024,"longitude":-95.712891,"country_code":"USA","city":"San Francisco"},{"name":"Mevio","funding_rounds.raised_amount":8900000,"number_of_employees":null,"category_code":"games_video","latitude":37.782263,"longitude":-122.392142,"country_code":"USA","city":"San Francisco"},{"name":"Mevio","funding_rounds.raised_amount":15000000,"number_of_employees":null,"category_code":"games_video","latitude":37.782263,"longitude":-122.392142,"country_code":"USA","city":"San Francisco"},{"name":"Mevio","funding_rounds.raised_amount":15000000,"number_of_employees":null,"category_code":"games_video","latitude":37.782263,"longitude":-122.392142,"country_code":"USA","city":"San Francisco"},{"name":"Mevio","funding_rounds.raised_amount":10000000,"number_of_employees":null,"category_code":"games_video","latitude":37.782263,"longitude":-122.392142,"country_code":"USA","city":"San Francisco"},{"name":"Atom Entertainment","funding_rounds.raised_amount":22900000,"number_of_employees":null,"category_code":"web","latitude":37.790964,"longitude":-122.401128,"country_code":"USA","city":"San Francisco"},{"name":"Greystripe","funding_rounds.raised_amount":8900000,"number_of_employees":90.0,"category_code":"advertising","latitude":37.710677,"longitude":-122.39323,"country_code":"USA","city":"San Francisco"},{"name":"Greystripe","funding_rounds.raised_amount":1200000,"number_of_employees":90.0,"category_code":"advertising","latitude":37.710677,"longitude":-122.39323,"country_code":"USA","city":"San Francisco"},{"name":"Greystripe","funding_rounds.raised_amount":5500000,"number_of_employees":90.0,"category_code":"advertising","latitude":37.710677,"longitude":-122.39323,"country_code":"USA","city":"San Francisco"},{"name":"Greystripe","funding_rounds.raised_amount":2000000,"number_of_employees":90.0,"category_code":"advertising","latitude":37.710677,"longitude":-122.39323,"country_code":"USA","city":"San Francisco"},{"name":"OpenTable","funding_rounds.raised_amount":2000000,"number_of_employees":550.0,"category_code":"web","latitude":37.785647,"longitude":-122.405265,"country_code":"USA","city":"San Francisco"},{"name":"OpenTable","funding_rounds.raised_amount":10000000,"number_of_employees":550.0,"category_code":"web","latitude":37.785647,"longitude":-122.405265,"country_code":"USA","city":"San Francisco"},{"name":"OpenTable","funding_rounds.raised_amount":36000000,"number_of_employees":550.0,"category_code":"web","latitude":37.785647,"longitude":-122.405265,"country_code":"USA","city":"San Francisco"},{"name":"Crunchyroll","funding_rounds.raised_amount":4050000,"number_of_employees":50.0,"category_code":"games_video","latitude":37.781265,"longitude":-122.393229,"country_code":"USA","city":"San Francisco"},{"name":"Crunchyroll","funding_rounds.raised_amount":750000,"number_of_employees":50.0,"category_code":"games_video","latitude":37.781265,"longitude":-122.393229,"country_code":"USA","city":"San Francisco"},{"name":"Zannel","funding_rounds.raised_amount":6000000,"number_of_employees":null,"category_code":"web","latitude":37.775196,"longitude":-122.419204,"country_code":"USA","city":"San Francisco"},{"name":"Zannel","funding_rounds.raised_amount":10000000,"number_of_employees":null,"category_code":"web","latitude":37.775196,"longitude":-122.419204,"country_code":"USA","city":"San Francisco"},{"name":"Wikinvest","funding_rounds.raised_amount":2500000,"number_of_employees":null,"category_code":"web","latitude":37.775196,"longitude":-122.419204,"country_code":"USA","city":"San Francisco"},{"name":"Rupture","funding_rounds.raised_amount":3000000,"number_of_employees":25.0,"category_code":"games_video","latitude":37.783898,"longitude":-122.395234,"country_code":"USA","city":"San Francisco"},{"name":"Whiskey Media","funding_rounds.raised_amount":2500000,"number_of_employees":12.0,"category_code":"web","latitude":37.856331,"longitude":-122.495222,"country_code":"USA","city":"San Francisco"},{"name":"Whiskey Media","funding_rounds.raised_amount":1500000,"number_of_employees":12.0,"category_code":"web","latitude":37.856331,"longitude":-122.495222,"country_code":"USA","city":"San Francisco"},{"name":"The Climate Corporation","funding_rounds.raised_amount":12600000,"number_of_employees":150.0,"category_code":"cleantech","latitude":37.782809,"longitude":-122.394354,"country_code":"USA","city":"San Francisco"},{"name":"The Climate Corporation","funding_rounds.raised_amount":4300000,"number_of_employees":150.0,"category_code":"cleantech","latitude":37.782809,"longitude":-122.394354,"country_code":"USA","city":"San Francisco"},{"name":"The Climate Corporation","funding_rounds.raised_amount":42000000,"number_of_employees":150.0,"category_code":"cleantech","latitude":37.782809,"longitude":-122.394354,"country_code":"USA","city":"San Francisco"},{"name":"The Climate Corporation","funding_rounds.raised_amount":50000000,"number_of_employees":150.0,"category_code":"cleantech","latitude":37.782809,"longitude":-122.394354,"country_code":"USA","city":"San Francisco"},{"name":"Automattic","funding_rounds.raised_amount":1100000,"number_of_employees":200.0,"category_code":"web","latitude":37.744274,"longitude":-122.421344,"country_code":"USA","city":"San Francisco"},{"name":"Automattic","funding_rounds.raised_amount":29500000,"number_of_employees":200.0,"category_code":"web","latitude":37.744274,"longitude":-122.421344,"country_code":"USA","city":"San Francisco"},{"name":"Radar Networks","funding_rounds.raised_amount":5000000,"number_of_employees":null,"category_code":"advertising","latitude":37.7753,"longitude":-122.398058,"country_code":"USA","city":"San Francisco"},{"name":"Radar Networks","funding_rounds.raised_amount":13000000,"number_of_employees":null,"category_code":"advertising","latitude":37.7753,"longitude":-122.398058,"country_code":"USA","city":"San Francisco"},{"name":"Radar Networks","funding_rounds.raised_amount":3000000,"number_of_employees":null,"category_code":"advertising","latitude":37.7753,"longitude":-122.398058,"country_code":"USA","city":"San Francisco"},{"name":"Radar Networks","funding_rounds.raised_amount":3000000,"number_of_employees":null,"category_code":"advertising","latitude":37.7753,"longitude":-122.398058,"country_code":"USA","city":"San Francisco"},{"name":"Gydget","funding_rounds.raised_amount":1000000,"number_of_employees":null,"category_code":"web","latitude":37.791733,"longitude":-122.398398,"country_code":"USA","city":"San Francisco"},{"name":"Disqus","funding_rounds.raised_amount":500000,"number_of_employees":43.0,"category_code":"web","latitude":37.786906,"longitude":-122.397672,"country_code":"USA","city":"San Francisco"},{"name":"Disqus","funding_rounds.raised_amount":10000000,"number_of_employees":43.0,"category_code":"web","latitude":37.786906,"longitude":-122.397672,"country_code":"USA","city":"San Francisco"},{"name":"BrightRoll","funding_rounds.raised_amount":1000000,"number_of_employees":null,"category_code":"advertising","latitude":37.794643,"longitude":-122.401144,"country_code":"USA","city":"San Francisco"},{"name":"BrightRoll","funding_rounds.raised_amount":5000000,"number_of_employees":null,"category_code":"advertising","latitude":37.794643,"longitude":-122.401144,"country_code":"USA","city":"San Francisco"},{"name":"BrightRoll","funding_rounds.raised_amount":10000000,"number_of_employees":null,"category_code":"advertising","latitude":37.794643,"longitude":-122.401144,"country_code":"USA","city":"San Francisco"},{"name":"BrightRoll","funding_rounds.raised_amount":30000000,"number_of_employees":null,"category_code":"advertising","latitude":37.794643,"longitude":-122.401144,"country_code":"USA","city":"San Francisco"},{"name":"Doppelganger","funding_rounds.raised_amount":11000000,"number_of_employees":null,"category_code":"web","latitude":37.762162,"longitude":-122.413912,"country_code":"USA","city":"San Francisco"},{"name":"Adteractive","funding_rounds.raised_amount":5100000,"number_of_employees":null,"category_code":"advertising","latitude":37.78554,"longitude":-122.396689,"country_code":"USA","city":"San Francisco"},{"name":"Podaddies","funding_rounds.raised_amount":1000000,"number_of_employees":null,"category_code":"advertising","latitude":37.7726402,"longitude":-122.4099154,"country_code":"USA","city":"San Francisco"},{"name":"GameLayers","funding_rounds.raised_amount":500000,"number_of_employees":5.0,"category_code":"web","latitude":37.803847,"longitude":-122.402468,"country_code":"USA","city":"San Francisco"},{"name":"GameLayers","funding_rounds.raised_amount":1500000,"number_of_employees":5.0,"category_code":"web","latitude":37.803847,"longitude":-122.402468,"country_code":"USA","city":"San Francisco"},{"name":"Dapper","funding_rounds.raised_amount":3000000,"number_of_employees":30.0,"category_code":"advertising","latitude":37.7766184,"longitude":-122.3938931,"country_code":"USA","city":"San Francisco"},{"name":"Masala","funding_rounds.raised_amount":4500000,"number_of_employees":null,"category_code":"web","latitude":37.09024,"longitude":-95.712891,"country_code":"USA","city":"San Francisco"},{"name":"HubPages","funding_rounds.raised_amount":2000000,"number_of_employees":21.0,"category_code":"web","latitude":37.7876952,"longitude":-122.3991505,"country_code":"USA","city":"San Francisco"},{"name":"HubPages","funding_rounds.raised_amount":6000000,"number_of_employees":21.0,"category_code":"web","latitude":37.7876952,"longitude":-122.3991505,"country_code":"USA","city":"San Francisco"},{"name":"PlayFirst","funding_rounds.raised_amount":16500000,"number_of_employees":null,"category_code":"games_video","latitude":37.790346,"longitude":-122.40185,"country_code":"USA","city":"San Francisco"},{"name":"PlayFirst","funding_rounds.raised_amount":5000000,"number_of_employees":null,"category_code":"games_video","latitude":37.790346,"longitude":-122.40185,"country_code":"USA","city":"San Francisco"},{"name":"PlayFirst","funding_rounds.raised_amount":5000000,"number_of_employees":null,"category_code":"games_video","latitude":37.790346,"longitude":-122.40185,"country_code":"USA","city":"San Francisco"},{"name":"PlayFirst","funding_rounds.raised_amount":9200000,"number_of_employees":null,"category_code":"games_video","latitude":37.790346,"longitude":-122.40185,"country_code":"USA","city":"San Francisco"},{"name":"PlayFirst","funding_rounds.raised_amount":2020000,"number_of_employees":null,"category_code":"games_video","latitude":37.790346,"longitude":-122.40185,"country_code":"USA","city":"San Francisco"},{"name":"Scrapblog","funding_rounds.raised_amount":2500000,"number_of_employees":null,"category_code":"web","latitude":25.752358,"longitude":-80.25468,"country_code":"USA","city":"San Francisco"},{"name":"Scrapblog","funding_rounds.raised_amount":1000000,"number_of_employees":null,"category_code":"web","latitude":25.752358,"longitude":-80.25468,"country_code":"USA","city":"San Francisco"},{"name":"Scrapblog","funding_rounds.raised_amount":4000000,"number_of_employees":null,"category_code":"web","latitude":25.752358,"longitude":-80.25468,"country_code":"USA","city":"San Francisco"},{"name":"Scrapblog","funding_rounds.raised_amount":2500000,"number_of_employees":null,"category_code":"web","latitude":25.752358,"longitude":-80.25468,"country_code":"USA","city":"San Francisco"},{"name":"Outspark","funding_rounds.raised_amount":4000000,"number_of_employees":null,"category_code":"games_video","latitude":37.775196,"longitude":-122.419204,"country_code":"USA","city":"San Francisco"},{"name":"Outspark","funding_rounds.raised_amount":11000000,"number_of_employees":null,"category_code":"games_video","latitude":37.775196,"longitude":-122.419204,"country_code":"USA","city":"San Francisco"},{"name":"Outspark","funding_rounds.raised_amount":8300000,"number_of_employees":null,"category_code":"games_video","latitude":37.775196,"longitude":-122.419204,"country_code":"USA","city":"San Francisco"},{"name":"Zynga","funding_rounds.raised_amount":10000000,"number_of_employees":115.0,"category_code":"games_video","latitude":37.765158,"longitude":-122.404234,"country_code":"USA","city":"San Francisco"},{"name":"Zynga","funding_rounds.raised_amount":25000000,"number_of_employees":115.0,"category_code":"games_video","latitude":37.765158,"longitude":-122.404234,"country_code":"USA","city":"San Francisco"},{"name":"Zynga","funding_rounds.raised_amount":15187000,"number_of_employees":115.0,"category_code":"games_video","latitude":37.765158,"longitude":-122.404234,"country_code":"USA","city":"San Francisco"},{"name":"Zynga","funding_rounds.raised_amount":300000000,"number_of_employees":115.0,"category_code":"games_video","latitude":37.765158,"longitude":-122.404234,"country_code":"USA","city":"San Francisco"},{"name":"Zynga","funding_rounds.raised_amount":490000000,"number_of_employees":115.0,"category_code":"games_video","latitude":37.765158,"longitude":-122.404234,"country_code":"USA","city":"San Francisco"},{"name":"Zynga","funding_rounds.raised_amount":5026000,"number_of_employees":115.0,"category_code":"games_video","latitude":37.765158,"longitude":-122.404234,"country_code":"USA","city":"San Francisco"},{"name":"Zynga","funding_rounds.raised_amount":15000000,"number_of_employees":115.0,"category_code":"games_video","latitude":37.765158,"longitude":-122.404234,"country_code":"USA","city":"San Francisco"},{"name":"clipsync","funding_rounds.raised_amount":210000,"number_of_employees":28.0,"category_code":"web","latitude":37.2906027,"longitude":-121.9317853,"country_code":"USA","city":"San Francisco"},{"name":"clipsync","funding_rounds.raised_amount":1300017,"number_of_employees":28.0,"category_code":"web","latitude":37.2906027,"longitude":-121.9317853,"country_code":"USA","city":"San Francisco"},{"name":"Lookery","funding_rounds.raised_amount":900000,"number_of_employees":9.0,"category_code":"web","latitude":37.788266,"longitude":-122.403865,"country_code":"USA","city":"San Francisco"},{"name":"Lookery","funding_rounds.raised_amount":2250000,"number_of_employees":9.0,"category_code":"web","latitude":37.788266,"longitude":-122.403865,"country_code":"USA","city":"San Francisco"},{"name":"Craigslist","funding_rounds.raised_amount":13500000,"number_of_employees":25.0,"category_code":"web","latitude":37.762512,"longitude":-122.46649,"country_code":"USA","city":"San Francisco"},{"name":"Three Rings","funding_rounds.raised_amount":3500000,"number_of_employees":30.0,"category_code":"web","latitude":37.775196,"longitude":-122.419204,"country_code":"USA","city":"San Francisco"},{"name":"Three Rings","funding_rounds.raised_amount":3500000,"number_of_employees":30.0,"category_code":"web","latitude":37.775196,"longitude":-122.419204,"country_code":"USA","city":"San Francisco"},{"name":"Ad Infuse","funding_rounds.raised_amount":12000000,"number_of_employees":null,"category_code":"advertising","latitude":37.793375,"longitude":-122.404571,"country_code":"USA","city":"San Francisco"},{"name":"Ad Infuse","funding_rounds.raised_amount":5000000,"number_of_employees":null,"category_code":"advertising","latitude":37.793375,"longitude":-122.404571,"country_code":"USA","city":"San Francisco"},{"name":"Ad Infuse","funding_rounds.raised_amount":600000,"number_of_employees":null,"category_code":"advertising","latitude":37.793375,"longitude":-122.404571,"country_code":"USA","city":"San Francisco"},{"name":"Flurry","funding_rounds.raised_amount":3500000,"number_of_employees":150.0,"category_code":"advertising","latitude":37.783046,"longitude":-122.394067,"country_code":"USA","city":"San Francisco"},{"name":"Flurry","funding_rounds.raised_amount":7000000,"number_of_employees":150.0,"category_code":"advertising","latitude":37.783046,"longitude":-122.394067,"country_code":"USA","city":"San Francisco"},{"name":"Flurry","funding_rounds.raised_amount":15000000,"number_of_employees":150.0,"category_code":"advertising","latitude":37.783046,"longitude":-122.394067,"country_code":"USA","city":"San Francisco"},{"name":"Flurry","funding_rounds.raised_amount":25000000,"number_of_employees":150.0,"category_code":"advertising","latitude":37.783046,"longitude":-122.394067,"country_code":"USA","city":"San Francisco"},{"name":"Flurry","funding_rounds.raised_amount":255000,"number_of_employees":150.0,"category_code":"advertising","latitude":37.783046,"longitude":-122.394067,"country_code":"USA","city":"San Francisco"},{"name":"Flurry","funding_rounds.raised_amount":12500000,"number_of_employees":150.0,"category_code":"advertising","latitude":37.783046,"longitude":-122.394067,"country_code":"USA","city":"San Francisco"},{"name":"Sportgenic","funding_rounds.raised_amount":10000000,"number_of_employees":15.0,"category_code":"advertising","latitude":37.790485,"longitude":-122.40094,"country_code":"USA","city":"San Francisco"},{"name":"Sportgenic","funding_rounds.raised_amount":1489687,"number_of_employees":15.0,"category_code":"advertising","latitude":37.790485,"longitude":-122.40094,"country_code":"USA","city":"San Francisco"},{"name":"99designs","funding_rounds.raised_amount":35000000,"number_of_employees":100.0,"category_code":"design","latitude":37.7955307,"longitude":-122.4005983,"country_code":"USA","city":"San Francisco"},{"name":"LiveRail","funding_rounds.raised_amount":500000,"number_of_employees":110.0,"category_code":"advertising","latitude":37.787183,"longitude":-122.397759,"country_code":"USA","city":"San Francisco"},{"name":"LiveRail","funding_rounds.raised_amount":3500000,"number_of_employees":110.0,"category_code":"advertising","latitude":37.787183,"longitude":-122.397759,"country_code":"USA","city":"San Francisco"},{"name":"LiveRail","funding_rounds.raised_amount":4000000,"number_of_employees":110.0,"category_code":"advertising","latitude":37.787183,"longitude":-122.397759,"country_code":"USA","city":"San Francisco"},{"name":"LiveRail","funding_rounds.raised_amount":4000000,"number_of_employees":110.0,"category_code":"advertising","latitude":37.787183,"longitude":-122.397759,"country_code":"USA","city":"San Francisco"},{"name":"PopularMedia","funding_rounds.raised_amount":4250000,"number_of_employees":null,"category_code":"advertising","latitude":37.767575,"longitude":-122.411157,"country_code":"USA","city":"San Francisco"},{"name":"PopularMedia","funding_rounds.raised_amount":8000000,"number_of_employees":null,"category_code":"advertising","latitude":37.767575,"longitude":-122.411157,"country_code":"USA","city":"San Francisco"},{"name":"PopJax","funding_rounds.raised_amount":4700000,"number_of_employees":null,"category_code":"web","latitude":37.796216,"longitude":-122.403755,"country_code":"USA","city":"San Francisco"},{"name":"Netbooks","funding_rounds.raised_amount":6900000,"number_of_employees":null,"category_code":"web","latitude":37.79471,"longitude":-122.40195,"country_code":"USA","city":"San Francisco"},{"name":"Netbooks","funding_rounds.raised_amount":187632,"number_of_employees":null,"category_code":"web","latitude":37.79471,"longitude":-122.40195,"country_code":"USA","city":"San Francisco"},{"name":"Netbooks","funding_rounds.raised_amount":9068396,"number_of_employees":null,"category_code":"web","latitude":37.79471,"longitude":-122.40195,"country_code":"USA","city":"San Francisco"},{"name":"Netbooks","funding_rounds.raised_amount":200000,"number_of_employees":null,"category_code":"web","latitude":37.79471,"longitude":-122.40195,"country_code":"USA","city":"San Francisco"},{"name":"SlideShare","funding_rounds.raised_amount":300000,"number_of_employees":10.0,"category_code":"web","latitude":37.776878,"longitude":-122.400934,"country_code":"USA","city":"San Francisco"},{"name":"SlideShare","funding_rounds.raised_amount":2700000,"number_of_employees":10.0,"category_code":"web","latitude":37.776878,"longitude":-122.400934,"country_code":"USA","city":"San Francisco"},{"name":"Xoopit","funding_rounds.raised_amount":1500000,"number_of_employees":null,"category_code":"web","latitude":37.7617955,"longitude":-122.4092704,"country_code":"USA","city":"San Francisco"},{"name":"Xoopit","funding_rounds.raised_amount":5000000,"number_of_employees":null,"category_code":"web","latitude":37.7617955,"longitude":-122.4092704,"country_code":"USA","city":"San Francisco"},{"name":"Marin Software","funding_rounds.raised_amount":2000000,"number_of_employees":null,"category_code":"advertising","latitude":37.792083,"longitude":-122.3946404,"country_code":"USA","city":"San Francisco"},{"name":"Marin Software","funding_rounds.raised_amount":7250000,"number_of_employees":null,"category_code":"advertising","latitude":37.792083,"longitude":-122.3946404,"country_code":"USA","city":"San Francisco"},{"name":"Marin Software","funding_rounds.raised_amount":13000000,"number_of_employees":null,"category_code":"advertising","latitude":37.792083,"longitude":-122.3946404,"country_code":"USA","city":"San Francisco"},{"name":"Marin Software","funding_rounds.raised_amount":11200000,"number_of_employees":null,"category_code":"advertising","latitude":37.792083,"longitude":-122.3946404,"country_code":"USA","city":"San Francisco"},{"name":"Marin Software","funding_rounds.raised_amount":16000000,"number_of_employees":null,"category_code":"advertising","latitude":37.792083,"longitude":-122.3946404,"country_code":"USA","city":"San Francisco"},{"name":"Marin Software","funding_rounds.raised_amount":30000000,"number_of_employees":null,"category_code":"advertising","latitude":37.792083,"longitude":-122.3946404,"country_code":"USA","city":"San Francisco"},{"name":"Marin Software","funding_rounds.raised_amount":19999979,"number_of_employees":null,"category_code":"advertising","latitude":37.792083,"longitude":-122.3946404,"country_code":"USA","city":"San Francisco"},{"name":"Marin Software","funding_rounds.raised_amount":818427,"number_of_employees":null,"category_code":"advertising","latitude":37.792083,"longitude":-122.3946404,"country_code":"USA","city":"San Francisco"},{"name":"Boxbe","funding_rounds.raised_amount":1500000,"number_of_employees":3.0,"category_code":"web","latitude":37.800209,"longitude":-122.442592,"country_code":"USA","city":"San Francisco"},{"name":"Apture","funding_rounds.raised_amount":500000,"number_of_employees":null,"category_code":"web","latitude":37.566042,"longitude":-122.322954,"country_code":"USA","city":"San Francisco"},{"name":"Apture","funding_rounds.raised_amount":4100000,"number_of_employees":null,"category_code":"web","latitude":37.566042,"longitude":-122.322954,"country_code":"USA","city":"San Francisco"},{"name":"Aardvark","funding_rounds.raised_amount":750000,"number_of_employees":30.0,"category_code":"web","latitude":37.748676,"longitude":-122.415813,"country_code":"USA","city":"San Francisco"},{"name":"Aardvark","funding_rounds.raised_amount":5250000,"number_of_employees":30.0,"category_code":"web","latitude":37.748676,"longitude":-122.415813,"country_code":"USA","city":"San Francisco"},{"name":"SQLstream","funding_rounds.raised_amount":6000000,"number_of_employees":null,"category_code":"analytics","latitude":37.775058,"longitude":-122.419966,"country_code":"USA","city":"San Francisco"},{"name":"SQLstream","funding_rounds.raised_amount":270100,"number_of_employees":null,"category_code":"analytics","latitude":37.775058,"longitude":-122.419966,"country_code":"USA","city":"San Francisco"},{"name":"Triggit","funding_rounds.raised_amount":350000,"number_of_employees":43.0,"category_code":"advertising","latitude":37.771208,"longitude":-122.418129,"country_code":"USA","city":"San Francisco"},{"name":"Triggit","funding_rounds.raised_amount":500000,"number_of_employees":43.0,"category_code":"advertising","latitude":37.771208,"longitude":-122.418129,"country_code":"USA","city":"San Francisco"},{"name":"Triggit","funding_rounds.raised_amount":4200000,"number_of_employees":43.0,"category_code":"advertising","latitude":37.771208,"longitude":-122.418129,"country_code":"USA","city":"San Francisco"},{"name":"Triggit","funding_rounds.raised_amount":7400000,"number_of_employees":43.0,"category_code":"advertising","latitude":37.771208,"longitude":-122.418129,"country_code":"USA","city":"San Francisco"},{"name":"Triggit","funding_rounds.raised_amount":6000000,"number_of_employees":43.0,"category_code":"advertising","latitude":37.771208,"longitude":-122.418129,"country_code":"USA","city":"San Francisco"},{"name":"Serious Business","funding_rounds.raised_amount":4000000,"number_of_employees":22.0,"category_code":"games_video","latitude":37.7893215,"longitude":-122.4013624,"country_code":"USA","city":"San Francisco"},{"name":"RateItAll","funding_rounds.raised_amount":1400000,"number_of_employees":6.0,"category_code":"web","latitude":37.755012,"longitude":-122.418137,"country_code":"USA","city":"San Francisco"},{"name":"Tealeaf","funding_rounds.raised_amount":12000000,"number_of_employees":100.0,"category_code":"advertising","latitude":37.791242,"longitude":-122.397133,"country_code":"USA","city":"San Francisco"},{"name":"Kabam","funding_rounds.raised_amount":4000000,"number_of_employees":650.0,"category_code":"games_video","latitude":37.3944561,"longitude":-122.0785314,"country_code":"USA","city":"San Francisco"},{"name":"Kabam","funding_rounds.raised_amount":5500000,"number_of_employees":650.0,"category_code":"games_video","latitude":37.3944561,"longitude":-122.0785314,"country_code":"USA","city":"San Francisco"},{"name":"Kabam","funding_rounds.raised_amount":30000000,"number_of_employees":650.0,"category_code":"games_video","latitude":37.3944561,"longitude":-122.0785314,"country_code":"USA","city":"San Francisco"},{"name":"Kabam","funding_rounds.raised_amount":85000000,"number_of_employees":650.0,"category_code":"games_video","latitude":37.3944561,"longitude":-122.0785314,"country_code":"USA","city":"San Francisco"},{"name":"Zinch","funding_rounds.raised_amount":4000000,"number_of_employees":80.0,"category_code":"web","latitude":40.234451,"longitude":-111.658656,"country_code":"USA","city":"San Francisco"},{"name":"Zinch","funding_rounds.raised_amount":1000000,"number_of_employees":80.0,"category_code":"web","latitude":40.234451,"longitude":-111.658656,"country_code":"USA","city":"San Francisco"},{"name":"Yoono","funding_rounds.raised_amount":3250000,"number_of_employees":10.0,"category_code":"web","latitude":37.787204,"longitude":-122.397884,"country_code":"USA","city":"San Francisco"},{"name":"Yoono","funding_rounds.raised_amount":2200000,"number_of_employees":10.0,"category_code":"web","latitude":37.787204,"longitude":-122.397884,"country_code":"USA","city":"San Francisco"},{"name":"Citizen Sports","funding_rounds.raised_amount":10000000,"number_of_employees":27.0,"category_code":"games_video","latitude":37.777513,"longitude":-122.397044,"country_code":"USA","city":"San Francisco"},{"name":"TerraPass","funding_rounds.raised_amount":5800000,"number_of_employees":7.0,"category_code":"web","latitude":37.787445,"longitude":-122.397847,"country_code":"USA","city":"San Francisco"},{"name":"Bizo","funding_rounds.raised_amount":6000000,"number_of_employees":66.0,"category_code":"advertising","latitude":37.7911186,"longitude":-122.4011706,"country_code":"USA","city":"San Francisco"},{"name":"Bizo","funding_rounds.raised_amount":10000000,"number_of_employees":66.0,"category_code":"advertising","latitude":37.7911186,"longitude":-122.4011706,"country_code":"USA","city":"San Francisco"},{"name":"Bizo","funding_rounds.raised_amount":12500000,"number_of_employees":66.0,"category_code":"advertising","latitude":37.7911186,"longitude":-122.4011706,"country_code":"USA","city":"San Francisco"},{"name":"PurePlay","funding_rounds.raised_amount":15000000,"number_of_employees":null,"category_code":"games_video","latitude":37.775196,"longitude":-122.419204,"country_code":"USA","city":"San Francisco"},{"name":"StartForce","funding_rounds.raised_amount":1000000,"number_of_employees":21.0,"category_code":"web","latitude":37.796164,"longitude":-122.420903,"country_code":"USA","city":"San Francisco"},{"name":"StartForce","funding_rounds.raised_amount":5000000,"number_of_employees":21.0,"category_code":"web","latitude":37.796164,"longitude":-122.420903,"country_code":"USA","city":"San Francisco"},{"name":"WideOrbit","funding_rounds.raised_amount":2000000,"number_of_employees":350.0,"category_code":"advertising","latitude":37.7895289,"longitude":-122.3885899,"country_code":"USA","city":"San Francisco"},{"name":"WideOrbit","funding_rounds.raised_amount":8000000,"number_of_employees":350.0,"category_code":"advertising","latitude":37.7895289,"longitude":-122.3885899,"country_code":"USA","city":"San Francisco"},{"name":"WideOrbit","funding_rounds.raised_amount":14500000,"number_of_employees":350.0,"category_code":"advertising","latitude":37.7895289,"longitude":-122.3885899,"country_code":"USA","city":"San Francisco"},{"name":"WideOrbit","funding_rounds.raised_amount":10000000,"number_of_employees":350.0,"category_code":"advertising","latitude":37.7895289,"longitude":-122.3885899,"country_code":"USA","city":"San Francisco"},{"name":"Posterous","funding_rounds.raised_amount":15000,"number_of_employees":9.0,"category_code":"web","latitude":37.775196,"longitude":-122.419204,"country_code":"USA","city":"San Francisco"},{"name":"Posterous","funding_rounds.raised_amount":725000,"number_of_employees":9.0,"category_code":"web","latitude":37.775196,"longitude":-122.419204,"country_code":"USA","city":"San Francisco"},{"name":"Posterous","funding_rounds.raised_amount":4400000,"number_of_employees":9.0,"category_code":"web","latitude":37.775196,"longitude":-122.419204,"country_code":"USA","city":"San Francisco"},{"name":"Posterous","funding_rounds.raised_amount":5000000,"number_of_employees":9.0,"category_code":"web","latitude":37.775196,"longitude":-122.419204,"country_code":"USA","city":"San Francisco"},{"name":"Open Places","funding_rounds.raised_amount":1100000,"number_of_employees":3.0,"category_code":"web","latitude":37.758352,"longitude":-122.398379,"country_code":"USA","city":"San Francisco"},{"name":"Genbook","funding_rounds.raised_amount":2200000,"number_of_employees":12.0,"category_code":"web","latitude":37.789902,"longitude":-122.4007791,"country_code":"USA","city":"San Francisco"},{"name":"Flowgram","funding_rounds.raised_amount":1300000,"number_of_employees":null,"category_code":"web","latitude":37.7710177,"longitude":-122.4025976,"country_code":"USA","city":"San Francisco"},{"name":"ON24","funding_rounds.raised_amount":8000000,"number_of_employees":null,"category_code":"web","latitude":37.7850326,"longitude":-122.4004738,"country_code":"USA","city":"San Francisco"},{"name":"trueAnthem","funding_rounds.raised_amount":2000000,"number_of_employees":10.0,"category_code":"advertising","latitude":37.8059887,"longitude":-122.4099154,"country_code":"USA","city":"San Francisco"},{"name":"trueAnthem","funding_rounds.raised_amount":2876750,"number_of_employees":10.0,"category_code":"advertising","latitude":37.8059887,"longitude":-122.4099154,"country_code":"USA","city":"San Francisco"},{"name":"trueAnthem","funding_rounds.raised_amount":2605104,"number_of_employees":10.0,"category_code":"advertising","latitude":37.8059887,"longitude":-122.4099154,"country_code":"USA","city":"San Francisco"},{"name":"Lexy","funding_rounds.raised_amount":1250000,"number_of_employees":null,"category_code":"games_video","latitude":37.786906,"longitude":-122.397672,"country_code":"USA","city":"San Francisco"},{"name":"Lexy","funding_rounds.raised_amount":458000,"number_of_employees":null,"category_code":"games_video","latitude":37.786906,"longitude":-122.397672,"country_code":"USA","city":"San Francisco"},{"name":"Carbonetworks","funding_rounds.raised_amount":5000000,"number_of_employees":39.0,"category_code":"cleantech","latitude":37.805289,"longitude":-122.404448,"country_code":"USA","city":"San Francisco"},{"name":"Kontagent","funding_rounds.raised_amount":1000000,"number_of_employees":80.0,"category_code":"analytics","latitude":37.7797255,"longitude":-122.4020593,"country_code":"USA","city":"San Francisco"},{"name":"Kontagent","funding_rounds.raised_amount":4500000,"number_of_employees":80.0,"category_code":"analytics","latitude":37.7797255,"longitude":-122.4020593,"country_code":"USA","city":"San Francisco"},{"name":"Kontagent","funding_rounds.raised_amount":12000000,"number_of_employees":80.0,"category_code":"analytics","latitude":37.7797255,"longitude":-122.4020593,"country_code":"USA","city":"San Francisco"},{"name":"Huddler","funding_rounds.raised_amount":5000000,"number_of_employees":52.0,"category_code":"web","latitude":37.7893215,"longitude":-122.4013624,"country_code":"USA","city":"San Francisco"},{"name":"Huddler","funding_rounds.raised_amount":750000,"number_of_employees":52.0,"category_code":"web","latitude":37.7893215,"longitude":-122.4013624,"country_code":"USA","city":"San Francisco"},{"name":"Huddler","funding_rounds.raised_amount":17000000,"number_of_employees":52.0,"category_code":"web","latitude":37.7893215,"longitude":-122.4013624,"country_code":"USA","city":"San Francisco"},{"name":"Zorap","funding_rounds.raised_amount":1400000,"number_of_employees":2.0,"category_code":"web","latitude":37.775196,"longitude":-122.419204,"country_code":"USA","city":"San Francisco"},{"name":"Zorap","funding_rounds.raised_amount":851000,"number_of_employees":2.0,"category_code":"web","latitude":37.775196,"longitude":-122.419204,"country_code":"USA","city":"San Francisco"},{"name":"ngmoco","funding_rounds.raised_amount":5600000,"number_of_employees":150.0,"category_code":"games_video","latitude":37.7705096,"longitude":-122.4015807,"country_code":"USA","city":"San Francisco"},{"name":"ngmoco","funding_rounds.raised_amount":10000000,"number_of_employees":150.0,"category_code":"games_video","latitude":37.7705096,"longitude":-122.4015807,"country_code":"USA","city":"San Francisco"},{"name":"ngmoco","funding_rounds.raised_amount":24200000,"number_of_employees":150.0,"category_code":"games_video","latitude":37.7705096,"longitude":-122.4015807,"country_code":"USA","city":"San Francisco"},{"name":"ngmoco","funding_rounds.raised_amount":5000000,"number_of_employees":150.0,"category_code":"games_video","latitude":37.7705096,"longitude":-122.4015807,"country_code":"USA","city":"San Francisco"},{"name":"Sharethrough","funding_rounds.raised_amount":1000000,"number_of_employees":80.0,"category_code":"advertising","latitude":37.7976785,"longitude":-122.4018163,"country_code":"USA","city":"San Francisco"},{"name":"Sharethrough","funding_rounds.raised_amount":5000000,"number_of_employees":80.0,"category_code":"advertising","latitude":37.7976785,"longitude":-122.4018163,"country_code":"USA","city":"San Francisco"},{"name":"Sharethrough","funding_rounds.raised_amount":5000000,"number_of_employees":80.0,"category_code":"advertising","latitude":37.7976785,"longitude":-122.4018163,"country_code":"USA","city":"San Francisco"},{"name":"ReTel Technologies","funding_rounds.raised_amount":1000000,"number_of_employees":5.0,"category_code":"analytics","latitude":41.78942,"longitude":-87.596232,"country_code":"USA","city":"San Francisco"},{"name":"Demandbase","funding_rounds.raised_amount":8000000,"number_of_employees":80.0,"category_code":"analytics","latitude":37.796843,"longitude":-122.400346,"country_code":"USA","city":"San Francisco"},{"name":"Demandbase","funding_rounds.raised_amount":10000000,"number_of_employees":80.0,"category_code":"analytics","latitude":37.796843,"longitude":-122.400346,"country_code":"USA","city":"San Francisco"},{"name":"Demandbase","funding_rounds.raised_amount":15000000,"number_of_employees":80.0,"category_code":"analytics","latitude":37.796843,"longitude":-122.400346,"country_code":"USA","city":"San Francisco"},{"name":"AdRocket","funding_rounds.raised_amount":1000000,"number_of_employees":5.0,"category_code":"advertising","latitude":37.775196,"longitude":-122.419204,"country_code":"USA","city":"San Francisco"},{"name":"GoodGuide","funding_rounds.raised_amount":3730000,"number_of_employees":10.0,"category_code":"web","latitude":37.7983181,"longitude":-122.4000032,"country_code":"USA","city":"San Francisco"},{"name":"GoodGuide","funding_rounds.raised_amount":5500000,"number_of_employees":10.0,"category_code":"web","latitude":37.7983181,"longitude":-122.4000032,"country_code":"USA","city":"San Francisco"},{"name":"GoodGuide","funding_rounds.raised_amount":4999998,"number_of_employees":10.0,"category_code":"web","latitude":37.7983181,"longitude":-122.4000032,"country_code":"USA","city":"San Francisco"},{"name":"Lolapps","funding_rounds.raised_amount":4000000,"number_of_employees":65.0,"category_code":"web","latitude":37.7870923,"longitude":-122.3999719,"country_code":"USA","city":"San Francisco"},{"name":"ReTel Technologies","funding_rounds.raised_amount":1000000,"number_of_employees":5.0,"category_code":"analytics","latitude":41.78942,"longitude":-87.596232,"country_code":"USA","city":"San Francisco"},{"name":"Demandbase","funding_rounds.raised_amount":8000000,"number_of_employees":80.0,"category_code":"analytics","latitude":37.796843,"longitude":-122.400346,"country_code":"USA","city":"San Francisco"},{"name":"Demandbase","funding_rounds.raised_amount":10000000,"number_of_employees":80.0,"category_code":"analytics","latitude":37.796843,"longitude":-122.400346,"country_code":"USA","city":"San Francisco"},{"name":"Demandbase","funding_rounds.raised_amount":15000000,"number_of_employees":80.0,"category_code":"analytics","latitude":37.796843,"longitude":-122.400346,"country_code":"USA","city":"San Francisco"},{"name":"AdRocket","funding_rounds.raised_amount":1000000,"number_of_employees":5.0,"category_code":"advertising","latitude":37.775196,"longitude":-122.419204,"country_code":"USA","city":"San Francisco"},{"name":"GoodGuide","funding_rounds.raised_amount":3730000,"number_of_employees":10.0,"category_code":"web","latitude":37.7983181,"longitude":-122.4000032,"country_code":"USA","city":"San Francisco"},{"name":"GoodGuide","funding_rounds.raised_amount":5500000,"number_of_employees":10.0,"category_code":"web","latitude":37.7983181,"longitude":-122.4000032,"country_code":"USA","city":"San Francisco"},{"name":"GoodGuide","funding_rounds.raised_amount":4999998,"number_of_employees":10.0,"category_code":"web","latitude":37.7983181,"longitude":-122.4000032,"country_code":"USA","city":"San Francisco"},{"name":"Lolapps","funding_rounds.raised_amount":4000000,"number_of_employees":65.0,"category_code":"web","latitude":37.7870923,"longitude":-122.3999719,"country_code":"USA","city":"San Francisco"},{"name":"Brightstorm","funding_rounds.raised_amount":6000000,"number_of_employees":null,"category_code":"games_video","latitude":37.804619,"longitude":-122.371203,"country_code":"USA","city":"San Francisco"},{"name":"PicApp","funding_rounds.raised_amount":3200000,"number_of_employees":null,"category_code":"web","latitude":37.79402,"longitude":-122.4031242,"country_code":"USA","city":"San Francisco"},{"name":"One Season","funding_rounds.raised_amount":250000,"number_of_employees":null,"category_code":"games_video","latitude":37.775196,"longitude":-122.419204,"country_code":"USA","city":"San Francisco"},{"name":"One Season","funding_rounds.raised_amount":3500000,"number_of_employees":null,"category_code":"games_video","latitude":37.775196,"longitude":-122.419204,"country_code":"USA","city":"San Francisco"},{"name":"Reframe It","funding_rounds.raised_amount":700000,"number_of_employees":10.0,"category_code":"web","latitude":37.782163,"longitude":-122.400591,"country_code":"USA","city":"San Francisco"},{"name":"Reframe It","funding_rounds.raised_amount":2300000,"number_of_employees":10.0,"category_code":"web","latitude":37.782163,"longitude":-122.400591,"country_code":"USA","city":"San Francisco"},{"name":"Reframe It","funding_rounds.raised_amount":181000,"number_of_employees":10.0,"category_code":"web","latitude":37.782163,"longitude":-122.400591,"country_code":"USA","city":"San Francisco"},{"name":"Booyah","funding_rounds.raised_amount":4500000,"number_of_employees":null,"category_code":"games_video","latitude":37.420728,"longitude":-122.2103414,"country_code":"USA","city":"San Francisco"},{"name":"Booyah","funding_rounds.raised_amount":5000000,"number_of_employees":null,"category_code":"games_video","latitude":37.420728,"longitude":-122.2103414,"country_code":"USA","city":"San Francisco"},{"name":"Booyah","funding_rounds.raised_amount":20000000,"number_of_employees":null,"category_code":"games_video","latitude":37.420728,"longitude":-122.2103414,"country_code":"USA","city":"San Francisco"},{"name":"Booyah","funding_rounds.raised_amount":30000000,"number_of_employees":null,"category_code":"games_video","latitude":37.420728,"longitude":-122.2103414,"country_code":"USA","city":"San Francisco"},{"name":"Formspring","funding_rounds.raised_amount":2500000,"number_of_employees":19.0,"category_code":"web","latitude":39.9052263,"longitude":-86.0547016,"country_code":"USA","city":"San Francisco"},{"name":"Formspring","funding_rounds.raised_amount":11500000,"number_of_employees":19.0,"category_code":"web","latitude":39.9052263,"longitude":-86.0547016,"country_code":"USA","city":"San Francisco"},{"name":"Formspring","funding_rounds.raised_amount":255000,"number_of_employees":19.0,"category_code":"web","latitude":39.9052263,"longitude":-86.0547016,"country_code":"USA","city":"San Francisco"},{"name":"DocVerse","funding_rounds.raised_amount":1300000,"number_of_employees":5.0,"category_code":"web","latitude":37.788115,"longitude":-122.397141,"country_code":"USA","city":"San Francisco"},{"name":"Fanminder","funding_rounds.raised_amount":1000000,"number_of_employees":11.0,"category_code":"advertising","latitude":37.3792486,"longitude":-122.1151274,"country_code":"USA","city":"San Francisco"},{"name":"YieldBuild","funding_rounds.raised_amount":6000000,"number_of_employees":null,"category_code":"advertising","latitude":37.7877967,"longitude":-122.3989376,"country_code":"USA","city":"San Francisco"},{"name":"SeeSaw Networks","funding_rounds.raised_amount":3300000,"number_of_employees":null,"category_code":"advertising","latitude":37.791564,"longitude":-122.399981,"country_code":"USA","city":"San Francisco"},{"name":"SeeSaw Networks","funding_rounds.raised_amount":10000000,"number_of_employees":null,"category_code":"advertising","latitude":37.791564,"longitude":-122.399981,"country_code":"USA","city":"San Francisco"},{"name":"SeeSaw Networks","funding_rounds.raised_amount":6088876,"number_of_employees":null,"category_code":"advertising","latitude":37.791564,"longitude":-122.399981,"country_code":"USA","city":"San Francisco"},{"name":"SeeSaw Networks","funding_rounds.raised_amount":1000000,"number_of_employees":null,"category_code":"advertising","latitude":37.791564,"longitude":-122.399981,"country_code":"USA","city":"San Francisco"},{"name":"SeeSaw Networks","funding_rounds.raised_amount":750000,"number_of_employees":null,"category_code":"advertising","latitude":37.791564,"longitude":-122.399981,"country_code":"USA","city":"San Francisco"},{"name":"LiveVox","funding_rounds.raised_amount":7100000,"number_of_employees":null,"category_code":"web","latitude":37.794643,"longitude":-122.401144,"country_code":"USA","city":"San Francisco"},{"name":"LiveVox","funding_rounds.raised_amount":5000000,"number_of_employees":null,"category_code":"web","latitude":37.794643,"longitude":-122.401144,"country_code":"USA","city":"San Francisco"},{"name":"Fuego Nation","funding_rounds.raised_amount":1500000,"number_of_employees":null,"category_code":"web","latitude":37.775196,"longitude":-122.419204,"country_code":"USA","city":"San Francisco"},{"name":"Double Fusion","funding_rounds.raised_amount":26000000,"number_of_employees":80.0,"category_code":"web","latitude":37.7887135,"longitude":-122.3927145,"country_code":"USA","city":"San Francisco"},{"name":"Double Fusion","funding_rounds.raised_amount":20000000,"number_of_employees":80.0,"category_code":"web","latitude":37.7887135,"longitude":-122.3927145,"country_code":"USA","city":"San Francisco"},{"name":"Double Fusion","funding_rounds.raised_amount":3000000,"number_of_employees":80.0,"category_code":"web","latitude":37.7887135,"longitude":-122.3927145,"country_code":"USA","city":"San Francisco"},{"name":"Double Fusion","funding_rounds.raised_amount":10000000,"number_of_employees":80.0,"category_code":"web","latitude":37.7887135,"longitude":-122.3927145,"country_code":"USA","city":"San Francisco"},{"name":"SmartTurn","funding_rounds.raised_amount":5000000,"number_of_employees":null,"category_code":"advertising","latitude":37.789801,"longitude":-122.395327,"country_code":"USA","city":"San Francisco"},{"name":"SpongeFish","funding_rounds.raised_amount":2000000,"number_of_employees":null,"category_code":"web","latitude":37.7800788,"longitude":-122.3943096,"country_code":"USA","city":"San Francisco"},{"name":"Heyzap","funding_rounds.raised_amount":650000,"number_of_employees":null,"category_code":"games_video","latitude":37.7905538,"longitude":-122.4041485,"country_code":"USA","city":"San Francisco"},{"name":"Heyzap","funding_rounds.raised_amount":15000,"number_of_employees":null,"category_code":"games_video","latitude":37.7905538,"longitude":-122.4041485,"country_code":"USA","city":"San Francisco"},{"name":"Heyzap","funding_rounds.raised_amount":3000000,"number_of_employees":null,"category_code":"games_video","latitude":37.7905538,"longitude":-122.4041485,"country_code":"USA","city":"San Francisco"},{"name":"Heyzap","funding_rounds.raised_amount":4300000,"number_of_employees":null,"category_code":"games_video","latitude":37.7905538,"longitude":-122.4041485,"country_code":"USA","city":"San Francisco"},{"name":"Donnorwood Media","funding_rounds.raised_amount":5000000,"number_of_employees":null,"category_code":"web","latitude":37.785271,"longitude":-122.397582,"country_code":"USA","city":"San Francisco"},{"name":"KODA","funding_rounds.raised_amount":3000000,"number_of_employees":15.0,"category_code":"web","latitude":37.788796,"longitude":-122.40971,"country_code":"USA","city":"San Francisco"},{"name":"KODA","funding_rounds.raised_amount":1500000,"number_of_employees":15.0,"category_code":"web","latitude":37.788796,"longitude":-122.40971,"country_code":"USA","city":"San Francisco"},{"name":"Eightfold Logic","funding_rounds.raised_amount":3200000,"number_of_employees":null,"category_code":"advertising","latitude":37.7870841,"longitude":-122.4010675,"country_code":"USA","city":"San Francisco"},{"name":"Eightfold Logic","funding_rounds.raised_amount":8000000,"number_of_employees":null,"category_code":"advertising","latitude":37.7870841,"longitude":-122.4010675,"country_code":"USA","city":"San Francisco"},{"name":"Eightfold Logic","funding_rounds.raised_amount":5200000,"number_of_employees":null,"category_code":"advertising","latitude":37.7870841,"longitude":-122.4010675,"country_code":"USA","city":"San Francisco"},{"name":"Eightfold Logic","funding_rounds.raised_amount":2000000,"number_of_employees":null,"category_code":"advertising","latitude":37.7870841,"longitude":-122.4010675,"country_code":"USA","city":"San Francisco"},{"name":"Eightfold Logic","funding_rounds.raised_amount":1017308,"number_of_employees":null,"category_code":"advertising","latitude":37.7870841,"longitude":-122.4010675,"country_code":"USA","city":"San Francisco"},{"name":"PaperG","funding_rounds.raised_amount":2700000,"number_of_employees":50.0,"category_code":"advertising","latitude":37.7905948,"longitude":-122.406111,"country_code":"USA","city":"San Francisco"},{"name":"MyLikes","funding_rounds.raised_amount":630000,"number_of_employees":null,"category_code":"advertising","latitude":37.777995,"longitude":-122.408914,"country_code":"USA","city":"San Francisco"},{"name":"MyLikes","funding_rounds.raised_amount":5600000,"number_of_employees":null,"category_code":"advertising","latitude":37.777995,"longitude":-122.408914,"country_code":"USA","city":"San Francisco"},{"name":"Unity Technologies","funding_rounds.raised_amount":5500000,"number_of_employees":200.0,"category_code":"games_video","latitude":55.6924605,"longitude":12.530107,"country_code":"USA","city":"San Francisco"},{"name":"Unity Technologies","funding_rounds.raised_amount":12000000,"number_of_employees":200.0,"category_code":"games_video","latitude":55.6924605,"longitude":12.530107,"country_code":"USA","city":"San Francisco"},{"name":"SuperSecret","funding_rounds.raised_amount":10000000,"number_of_employees":null,"category_code":"web","latitude":37.7775896,"longitude":-122.3956019,"country_code":"USA","city":"San Francisco"},{"name":"CoTweet","funding_rounds.raised_amount":1100000,"number_of_employees":18.0,"category_code":"advertising","latitude":37.7405936,"longitude":-122.3764714,"country_code":"USA","city":"San Francisco"},{"name":"RainStor","funding_rounds.raised_amount":7500000,"number_of_employees":40.0,"category_code":"analytics","latitude":51.865488,"longitude":-2.235187,"country_code":"USA","city":"San Francisco"},{"name":"RainStor","funding_rounds.raised_amount":12000000,"number_of_employees":40.0,"category_code":"analytics","latitude":51.865488,"longitude":-2.235187,"country_code":"USA","city":"San Francisco"},{"name":"RainStor","funding_rounds.raised_amount":984827,"number_of_employees":40.0,"category_code":"analytics","latitude":51.865488,"longitude":-2.235187,"country_code":"USA","city":"San Francisco"},{"name":"RainStor","funding_rounds.raised_amount":1799998,"number_of_employees":40.0,"category_code":"analytics","latitude":51.865488,"longitude":-2.235187,"country_code":"USA","city":"San Francisco"},{"name":"RainStor","funding_rounds.raised_amount":4000000,"number_of_employees":40.0,"category_code":"analytics","latitude":51.865488,"longitude":-2.235187,"country_code":"USA","city":"San Francisco"},{"name":"PlantSense","funding_rounds.raised_amount":3500000,"number_of_employees":null,"category_code":"web","latitude":37.7697623,"longitude":-122.4183929,"country_code":"USA","city":"San Francisco"},{"name":"PlantSense","funding_rounds.raised_amount":2500000,"number_of_employees":null,"category_code":"web","latitude":37.7697623,"longitude":-122.4183929,"country_code":"USA","city":"San Francisco"},{"name":"PlantSense","funding_rounds.raised_amount":1275000,"number_of_employees":null,"category_code":"web","latitude":37.7697623,"longitude":-122.4183929,"country_code":"USA","city":"San Francisco"},{"name":"PlantSense","funding_rounds.raised_amount":1385000,"number_of_employees":null,"category_code":"web","latitude":37.7697623,"longitude":-122.4183929,"country_code":"USA","city":"San Francisco"},{"name":"Topsy Labs","funding_rounds.raised_amount":900000,"number_of_employees":45.0,"category_code":"analytics","latitude":37.775196,"longitude":-122.419204,"country_code":"USA","city":"San Francisco"},{"name":"Topsy Labs","funding_rounds.raised_amount":11000000,"number_of_employees":45.0,"category_code":"analytics","latitude":37.775196,"longitude":-122.419204,"country_code":"USA","city":"San Francisco"},{"name":"Topsy Labs","funding_rounds.raised_amount":3000000,"number_of_employees":45.0,"category_code":"analytics","latitude":37.775196,"longitude":-122.419204,"country_code":"USA","city":"San Francisco"},{"name":"Topsy Labs","funding_rounds.raised_amount":15000000,"number_of_employees":45.0,"category_code":"analytics","latitude":37.775196,"longitude":-122.419204,"country_code":"USA","city":"San Francisco"},{"name":"Topsy Labs","funding_rounds.raised_amount":5300000,"number_of_employees":45.0,"category_code":"analytics","latitude":37.775196,"longitude":-122.419204,"country_code":"USA","city":"San Francisco"},{"name":"Five Prime Therapeutics","funding_rounds.raised_amount":45000000,"number_of_employees":null,"category_code":"biotech","latitude":37.7676285,"longitude":-122.393799,"country_code":"USA","city":"San Francisco"},{"name":"Five Prime Therapeutics","funding_rounds.raised_amount":10000000,"number_of_employees":null,"category_code":"biotech","latitude":37.7676285,"longitude":-122.393799,"country_code":"USA","city":"San Francisco"},{"name":"Five Prime Therapeutics","funding_rounds.raised_amount":62000000,"number_of_employees":null,"category_code":"biotech","latitude":37.7676285,"longitude":-122.393799,"country_code":"USA","city":"San Francisco"},{"name":"Sunrun","funding_rounds.raised_amount":12000000,"number_of_employees":180.0,"category_code":"cleantech","latitude":37.7871306,"longitude":-122.4041075,"country_code":"USA","city":"San Francisco"},{"name":"Sunrun","funding_rounds.raised_amount":18000000,"number_of_employees":180.0,"category_code":"cleantech","latitude":37.7871306,"longitude":-122.4041075,"country_code":"USA","city":"San Francisco"},{"name":"Sunrun","funding_rounds.raised_amount":90000000,"number_of_employees":180.0,"category_code":"cleantech","latitude":37.7871306,"longitude":-122.4041075,"country_code":"USA","city":"San Francisco"},{"name":"Sunrun","funding_rounds.raised_amount":55000000,"number_of_employees":180.0,"category_code":"cleantech","latitude":37.7871306,"longitude":-122.4041075,"country_code":"USA","city":"San Francisco"},{"name":"Sunrun","funding_rounds.raised_amount":100000000,"number_of_employees":180.0,"category_code":"cleantech","latitude":37.7871306,"longitude":-122.4041075,"country_code":"USA","city":"San Francisco"},{"name":"Sunrun","funding_rounds.raised_amount":60000000,"number_of_employees":180.0,"category_code":"cleantech","latitude":37.7871306,"longitude":-122.4041075,"country_code":"USA","city":"San Francisco"},{"name":"Sunrun","funding_rounds.raised_amount":1600000,"number_of_employees":180.0,"category_code":"cleantech","latitude":37.7871306,"longitude":-122.4041075,"country_code":"USA","city":"San Francisco"},{"name":"ACT Biotech","funding_rounds.raised_amount":6567000,"number_of_employees":null,"category_code":"biotech","latitude":37.7871306,"longitude":-122.4041075,"country_code":"USA","city":"San Francisco"},{"name":"ACT Biotech","funding_rounds.raised_amount":500000,"number_of_employees":null,"category_code":"biotech","latitude":37.7871306,"longitude":-122.4041075,"country_code":"USA","city":"San Francisco"},{"name":"ACT Biotech","funding_rounds.raised_amount":6242000,"number_of_employees":null,"category_code":"biotech","latitude":37.7871306,"longitude":-122.4041075,"country_code":"USA","city":"San Francisco"},{"name":"ACT Biotech","funding_rounds.raised_amount":11671000,"number_of_employees":null,"category_code":"biotech","latitude":37.7871306,"longitude":-122.4041075,"country_code":"USA","city":"San Francisco"},{"name":"ACT Biotech","funding_rounds.raised_amount":1000000,"number_of_employees":null,"category_code":"biotech","latitude":37.7871306,"longitude":-122.4041075,"country_code":"USA","city":"San Francisco"},{"name":"ACT Biotech","funding_rounds.raised_amount":1000000,"number_of_employees":null,"category_code":"biotech","latitude":37.7871306,"longitude":-122.4041075,"country_code":"USA","city":"San Francisco"},{"name":"Recurrent Energy","funding_rounds.raised_amount":75000000,"number_of_employees":null,"category_code":"cleantech","latitude":37.805289,"longitude":-122.404448,"country_code":"USA","city":"San Francisco"},{"name":"Recurrent Energy","funding_rounds.raised_amount":10000000,"number_of_employees":null,"category_code":"cleantech","latitude":37.805289,"longitude":-122.404448,"country_code":"USA","city":"San Francisco"},{"name":"Osprey Pharmaceuticals USA","funding_rounds.raised_amount":11000000,"number_of_employees":null,"category_code":"biotech","latitude":37.775196,"longitude":-122.419204,"country_code":"USA","city":"San Francisco"},{"name":"Osprey Pharmaceuticals USA","funding_rounds.raised_amount":5920000,"number_of_employees":null,"category_code":"biotech","latitude":37.775196,"longitude":-122.419204,"country_code":"USA","city":"San Francisco"},{"name":"Roc2Loc","funding_rounds.raised_amount":2000000,"number_of_employees":null,"category_code":"cleantech","latitude":37.782475,"longitude":-122.407764,"country_code":"USA","city":"San Francisco"}]